FID,country,country_lo,name,gppd_idnr,capacity_m,latitude,longitude,primary_fu,other_fuel,other_fu_1,other_fu_2,commission,owner,source,url,geolocatio,wepp_id,year_of_ca,generation,generati_1,generati_2,generati_3,generati_4,generati_5,generati_6,generati_7,estimated_,estimated1,estimate_1,estimate_2,estimate_3,estimate_4,estimate_5,estimate_6,estimate_7,estimate_8
0,CHN,China,Baiyanghe power station,WRI1070488,890,36.471899999999998,117.842699999999994,Coal, , , ,2002,Huaneng Shandong Power Corporation,GCPT,https://endcoal.org/global-coal-plant-tracker/,GCPT,1028531, , , , , , , , , , , , , ,4336.689999999999600,NO-ESTIMATION,NO-ESTIMATION,NO-ESTIMATION,NO-ESTIMATION,CAPACITY-FACTOR-V1
1,CHN,China,Beihai New Area Heating power station,WRI1070490,900,38.022900000000000,117.972600000000000,Coal, , , ,2014,Shandong Weiqiao Aluminum Power Co Ltd,GCPT,https://endcoal.org/global-coal-plant-tracker/,GCPT, , , , , , , , , , , , , , ,4385.420000000000073,NO-ESTIMATION,NO-ESTIMATION,NO-ESTIMATION,NO-ESTIMATION,CAPACITY-FACTOR-V1
2,CHN,China,Binzhou - Huji 1-4 Coal,WRI1070494,1320,37.349499999999999,117.778400000000005,Coal, , , ,2014,Weiqiao Huimin New Material Co Ltd,Industry About,https://industryabout.com/country-territories-3/1705-china/fossil-fuels-energy/33449-binzhou-huji-1-4-coal-power-plant,Industry About, , , , , , , , , , , , , , ,6431.949999999999818,NO-ESTIMATION,NO-ESTIMATION,NO-ESTIMATION,NO-ESTIMATION,CAPACITY-FACTOR-V1
3,CHN,China,Binzhou Heating Supply Center power station,WRI1070718,780,37.348199999999999,117.890900000000002,Coal, , , ,2012,Shandong Weiqiao Aluminum Power Co Ltd,GCPT,https://endcoal.org/global-coal-plant-tracker/,GCPT, , , , , , , , , , , , , , ,3800.690000000000055,NO-ESTIMATION,NO-ESTIMATION,NO-ESTIMATION,NO-ESTIMATION,CAPACITY-FACTOR-V1
4,CHN,China,CHALCO Shandong Branch Power Station,WRI1075578,138,36.748399999999997,118.069400000000002,Coal, , , ,2012,CHALCO Shandong Branch,GCPT,https://endcoal.org/global-coal-plant-tracker/,GCPT, , , , , , , , , , , , , , ,672.429999999999950,NO-ESTIMATION,NO-ESTIMATION,NO-ESTIMATION,NO-ESTIMATION,CAPACITY-FACTOR-V1
5,CHN,China,Chiping Haoji power station,WRI1070058,1400,36.486499999999999,116.333600000000004,Coal, , , ,2013,Chiping Xinyuan Aluminum Co Ltd,GCPT,https://endcoal.org/global-coal-plant-tracker/,GCPT,1087421, , , , , , , , , , , , , ,6821.760000000000218,NO-ESTIMATION,NO-ESTIMATION,NO-ESTIMATION,NO-ESTIMATION,CAPACITY-FACTOR-V1
6,CHN,China,Chiping Xinfa power station,WRI1075588,620,36.607900000000001,116.245599999999996,Coal, , , ,2002,Shandong Renping Xinfa Aluminium Co,GCPT,https://endcoal.org/global-coal-plant-tracker/,GCPT, , , , , , , , , , , , , , ,3021.059999999999945,NO-ESTIMATION,NO-ESTIMATION,NO-ESTIMATION,NO-ESTIMATION,CAPACITY-FACTOR-V1
7,CHN,China,Datang Binzhou power station,WRI1070493,700,37.467399999999998,118.046999999999997,Coal, , , ,2015,Datang Shandong Power Generation Co Ltd,GCPT,https://endcoal.org/global-coal-plant-tracker/,GCPT,1086264, , , , , , , , , , , , , ,3410.880000000000109,NO-ESTIMATION,NO-ESTIMATION,NO-ESTIMATION,NO-ESTIMATION,CAPACITY-FACTOR-V1
8,CHN,China,Dongying Coastal power station,WRI1070714,600,37.428800000000003,118.858099999999993,Coal, , , ,2012,Dongying Coastal Heating Co Ltd,GCPT,https://endcoal.org/global-coal-plant-tracker/,GCPT,1088135, , , , , , , , , , , , , ,2923.610000000000127,NO-ESTIMATION,NO-ESTIMATION,NO-ESTIMATION,NO-ESTIMATION,CAPACITY-FACTOR-V1
9,CHN,China,Dongying Huatai Chemical power station,WRI1075598,200,37.408999999999999,118.875200000000007,Coal, , , ,2010,Dongying Huatai Chemical Group,GCPT,https://endcoal.org/global-coal-plant-tracker/,GCPT, , , , , , , , , , , , , , ,974.529999999999973,NO-ESTIMATION,NO-ESTIMATION,NO-ESTIMATION,NO-ESTIMATION,CAPACITY-FACTOR-V1
10,CHN,China,Guodian Feixian power station,WRI1070713,1300,35.319699999999997,117.905699999999996,Coal, , , ,2007,China Guodian Group Corporation,GCPT,https://endcoal.org/global-coal-plant-tracker/,GCPT,1059288, , , , , , , , , , , , , ,6334.489999999999782,NO-ESTIMATION,NO-ESTIMATION,NO-ESTIMATION,NO-ESTIMATION,CAPACITY-FACTOR-V1
11,CHN,China,Guodian Penglai power station,WRI1070309,660,37.755299999999998,120.594499999999996,Coal, , , ,2006,China Guodian Group Corporation,GCPT,https://endcoal.org/global-coal-plant-tracker/,GCPT, , , , , , , , , , , , , , ,3215.969999999999800,NO-ESTIMATION,NO-ESTIMATION,NO-ESTIMATION,NO-ESTIMATION,CAPACITY-FACTOR-V1
12,CHN,China,Guodian Taian power station,WRI1075611,700,36.076400000000000,117.136899999999997,Coal, , , ,2015,Guodian Shandong Power Co,GCPT,https://endcoal.org/global-coal-plant-tracker/,GCPT, , , , , , , , , , , , , , ,3410.880000000000109,NO-ESTIMATION,NO-ESTIMATION,NO-ESTIMATION,NO-ESTIMATION,CAPACITY-FACTOR-V1
13,CHN,China,Guohua Shouguang power station,WRI1072549,2000,37.269700000000000,118.906899999999993,Coal, , , ,2016,Shenhua Guohua Power,GCPT,https://endcoal.org/global-coal-plant-tracker/,GCPT,1081550, , , , , , , , , , , , , ,9745.379999999999200,NO-ESTIMATION,NO-ESTIMATION,NO-ESTIMATION,NO-ESTIMATION,CAPACITY-FACTOR-V1
14,CHN,China,Hengtong Chemical Power Station,WRI1075624,180,34.626800000000003,118.324200000000005,Coal, , , ,2003,Hengtong Chemical Co.Ltd.,GCPT,https://endcoal.org/global-coal-plant-tracker/,GCPT, , , , , , , , , , , , , , ,877.080000000000041,NO-ESTIMATION,NO-ESTIMATION,NO-ESTIMATION,NO-ESTIMATION,CAPACITY-FACTOR-V1
15,CHN,China,Heze Huarun power station,WRI1070115,1200,35.252600000000001,115.686000000000007,Coal, , , ,2011,China Resources Power Holdings Co Ltd,GCPT,https://endcoal.org/global-coal-plant-tracker/,GCPT,1086179, , , , , , , , , , , , , ,5847.220000000000255,NO-ESTIMATION,NO-ESTIMATION,NO-ESTIMATION,NO-ESTIMATION,CAPACITY-FACTOR-V1
16,CHN,China,Heze power station,WRI1070114,1510,35.240699999999997,115.533500000000004,Coal, , , ,2002,China Guodian Group Corporation,GCPT,https://endcoal.org/global-coal-plant-tracker/,GCPT,1028532, , , , , , , , , , , , , ,7357.760000000000218,NO-ESTIMATION,NO-ESTIMATION,NO-ESTIMATION,NO-ESTIMATION,CAPACITY-FACTOR-V1
17,CHN,China,Huadian Laizhou power station,WRI1070341,2078,37.432299999999998,120.017700000000005,Coal, , , ,2012,Huadian Power International Company Limited,GCPT,https://endcoal.org/global-coal-plant-tracker/,GCPT,1072758, , , , , , , , , , , , , ,10125.450000000000728,NO-ESTIMATION,NO-ESTIMATION,NO-ESTIMATION,NO-ESTIMATION,CAPACITY-FACTOR-V1
18,CHN,China,Huadian Longkou power station,WRI1070334,880,37.680900000000001,120.313199999999995,Coal, , , ,1990,Huadian Power International Company Limited,GCPT,https://endcoal.org/global-coal-plant-tracker/,GCPT,1028538, , , , , , , , , , , , , ,4287.960000000000036,NO-ESTIMATION,NO-ESTIMATION,NO-ESTIMATION,NO-ESTIMATION,CAPACITY-FACTOR-V1
19,CHN,China,Huadian Shiliquan power station,WRI1070566,2060,34.814399999999999,117.573099999999997,Coal, , , ,2003,Huadian Power International Company Limited,GCPT,https://endcoal.org/global-coal-plant-tracker/,GCPT,1028545, , , , , , , , , , , , , ,10037.739999999999782,NO-ESTIMATION,NO-ESTIMATION,NO-ESTIMATION,NO-ESTIMATION,CAPACITY-FACTOR-V1
20,CHN,China,Huadian Weifang power station,WRI1070569,2000,36.665599999999998,119.263199999999998,Coal, , , ,2002,Huadian Power International Company Limited,GCPT,https://endcoal.org/global-coal-plant-tracker/,GCPT,1028547, , , , , , , , , , , , , ,9745.379999999999200,NO-ESTIMATION,NO-ESTIMATION,NO-ESTIMATION,NO-ESTIMATION,CAPACITY-FACTOR-V1
21,CHN,China,Huadian Zibo power station,WRI1070289,950,36.760199999999998,118.053200000000004,Coal, , , ,2007,Huadian Power International Company Limited,GCPT,https://endcoal.org/global-coal-plant-tracker/,GCPT,1058363, , , , , , , , , , , , , ,4629.050000000000182,NO-ESTIMATION,NO-ESTIMATION,NO-ESTIMATION,NO-ESTIMATION,CAPACITY-FACTOR-V1
22,CHN,China,Huaneng Jiaxiang power station,WRI1070648,660,35.384500000000003,116.443200000000004,Coal, , , ,2007,Huaneng Shandong Power Co Ltd,GCPT,https://endcoal.org/global-coal-plant-tracker/,GCPT,1088271, , , , , , , , , , , , , ,3215.969999999999800,NO-ESTIMATION,NO-ESTIMATION,NO-ESTIMATION,NO-ESTIMATION,CAPACITY-FACTOR-V1
23,CHN,China,Huaneng Laiwu power station,WRI1070125,2660,36.133899999999997,117.685000000000002,Coal, , , ,2009,Huaneng Shandong Power Co Ltd,GCPT,https://endcoal.org/global-coal-plant-tracker/,GCPT,1028537, , , , , , , , , , , , , ,12961.350000000000364,NO-ESTIMATION,NO-ESTIMATION,NO-ESTIMATION,NO-ESTIMATION,CAPACITY-FACTOR-V1
24,CHN,China,Huaneng Qufu power station,WRI1070311,450,35.607799999999997,116.933800000000005,Coal, , , ,2006,Huaneng Shandong Power Co Ltd,GCPT,https://endcoal.org/global-coal-plant-tracker/,GCPT, , , , , , , , , , , , , , ,2192.710000000000036,NO-ESTIMATION,NO-ESTIMATION,NO-ESTIMATION,NO-ESTIMATION,CAPACITY-FACTOR-V1
25,CHN,China,Huaneng Yantai power station,WRI1070288,590,37.532600000000002,121.315899999999999,Coal, , , ,1999,Huaneng Shandong Power Co Ltd,GCPT,https://endcoal.org/global-coal-plant-tracker/,GCPT,1028549, , , , , , , , , , , , , ,2874.880000000000109,NO-ESTIMATION,NO-ESTIMATION,NO-ESTIMATION,NO-ESTIMATION,CAPACITY-FACTOR-V1
26,CHN,China,Huangdao power station,WRI1070120,1770,36.039000000000001,120.219300000000004,Coal, , , ,1999,Datang Shandong Power Generation Co Ltd,GCPT,https://endcoal.org/global-coal-plant-tracker/,GCPT,1028534, , , , , , , , , , , , , ,8624.659999999999854,NO-ESTIMATION,NO-ESTIMATION,NO-ESTIMATION,NO-ESTIMATION,CAPACITY-FACTOR-V1
27,CHN,China,Huangtai power station,WRI1070118,1360,36.707799999999999,117.087999999999994,Coal, , , ,1992,Huaneng Shandong Power Co Ltd,GCPT,https://endcoal.org/global-coal-plant-tracker/,GCPT,1028535, , , , , , , , , , , , , ,6626.850000000000364,NO-ESTIMATION,NO-ESTIMATION,NO-ESTIMATION,NO-ESTIMATION,CAPACITY-FACTOR-V1
28,CHN,China,Huantai power station,WRI1075638,180,36.978800000000000,118.039900000000003,Coal, , , ,0,Huantai County Power Plant,GCPT,https://endcoal.org/global-coal-plant-tracker/,GCPT, , , , , , , , , , , , , , ,877.080000000000041,NO-ESTIMATION,NO-ESTIMATION,NO-ESTIMATION,NO-ESTIMATION,CAPACITY-FACTOR-V1
29,CHN,China,Jining Yangcheng power station,WRI1075659,300,35.772700000000000,116.319400000000002,Coal, , , ,2009,Luneng Coal Power Co,GCPT,https://endcoal.org/global-coal-plant-tracker/,GCPT, , , , , , , , , , , , , , ,1461.799999999999955,NO-ESTIMATION,NO-ESTIMATION,NO-ESTIMATION,NO-ESTIMATION,CAPACITY-FACTOR-V1
30,CHN,China,Laicheng power station,WRI1072552,1200,36.254700000000000,117.672499999999999,Coal, , , ,2001,Huadian Power International Corporation Limited,GCPT,https://endcoal.org/global-coal-plant-tracker/,GCPT,1028536, , , , , , , , , , , , , ,5847.220000000000255,NO-ESTIMATION,NO-ESTIMATION,NO-ESTIMATION,NO-ESTIMATION,CAPACITY-FACTOR-V1
31,CHN,China,Liaocheng Zhonghua power station,WRI1070344,1200,36.465899999999998,115.909400000000005,Coal, , , ,2002,Shandong Zhonghua Power Co Ltd,GCPT,https://endcoal.org/global-coal-plant-tracker/,GCPT,1028528, , , , , , , , , , , , , ,5847.220000000000255,NO-ESTIMATION,NO-ESTIMATION,NO-ESTIMATION,NO-ESTIMATION,CAPACITY-FACTOR-V1
32,CHN,China,Linyi Huasheng power station,WRI1075669,405,34.957000000000001,118.305700000000002,Coal, , , ,2004,Huayu Aluminum Co,GCPT,https://endcoal.org/global-coal-plant-tracker/,GCPT, , , , , , , , , , , , , , ,1973.430000000000064,NO-ESTIMATION,NO-ESTIMATION,NO-ESTIMATION,NO-ESTIMATION,CAPACITY-FACTOR-V1
33,CHN,China,Linyi Xincheng Jinluo Cogen power station,WRI1075670,50,35.248699999999999,118.295199999999994,Coal, , , ,2017,Linyi Xincheng Jinluo Cogen Company,GCPT,https://endcoal.org/global-coal-plant-tracker/,GCPT, , , , , , , , , , , , , , ,243.629999999999995,NO-ESTIMATION,NO-ESTIMATION,NO-ESTIMATION,NO-ESTIMATION,CAPACITY-FACTOR-V1
34,CHN,China,Linyi power station,WRI1070337,1260,35.007100000000001,118.323899999999995,Coal, , , ,2007,Huaneng Shandong Power Co Ltd,GCPT,https://endcoal.org/global-coal-plant-tracker/,GCPT,1055686, , , , , , , , , , , , , ,6139.590000000000146,NO-ESTIMATION,NO-ESTIMATION,NO-ESTIMATION,NO-ESTIMATION,CAPACITY-FACTOR-V1
35,CHN,China,Liyuan Cogen power station,WRI1070340,700,35.171999999999997,119.037000000000006,Coal, , , ,2016,Shandong Xinhai Technology Co Ltd,GCPT,https://endcoal.org/global-coal-plant-tracker/,GCPT, , , , , , , , , , , , , , ,3410.880000000000109,NO-ESTIMATION,NO-ESTIMATION,NO-ESTIMATION,NO-ESTIMATION,CAPACITY-FACTOR-V1
36,CHN,China,Longgu Cogen power station,WRI1075673,110,34.952700000000000,116.802899999999994,Coal, , , ,2005,GCL-Poly Energy Holdings,GCPT,https://endcoal.org/global-coal-plant-tracker/,GCPT, , , , , , , , , , , , , , ,535.990000000000009,NO-ESTIMATION,NO-ESTIMATION,NO-ESTIMATION,NO-ESTIMATION,CAPACITY-FACTOR-V1
37,CHN,China,Lubei power station,WRI1075675,660,38.082400000000000,117.742000000000004,Coal, , , ,2009,Datang Shandong Power Corporation,GCPT,https://endcoal.org/global-coal-plant-tracker/,GCPT, , , , , , , , , , , , , , ,3215.969999999999800,NO-ESTIMATION,NO-ESTIMATION,NO-ESTIMATION,NO-ESTIMATION,CAPACITY-FACTOR-V1
38,CHN,China,Nanshan Aluminum Donghai power station,WRI1070285,1730,37.728600000000000,120.443299999999994,Coal, , , ,2008,Shandong Nanshan Aluminum Co Ltd,GCPT,https://endcoal.org/global-coal-plant-tracker/,GCPT,1066217, , , , , , , , , , , , , ,8429.750000000000000,NO-ESTIMATION,NO-ESTIMATION,NO-ESTIMATION,NO-ESTIMATION,CAPACITY-FACTOR-V1
39,CHN,China,Nanshan Thermal power station,WRI1075684,420,37.593100000000000,120.470399999999998,Coal, , , ,2008,Shandong Nanshan Aluminum Co,GCPT,https://endcoal.org/global-coal-plant-tracker/,GCPT, , , , , , , , , , , , , , ,2046.529999999999973,NO-ESTIMATION,NO-ESTIMATION,NO-ESTIMATION,NO-ESTIMATION,CAPACITY-FACTOR-V1
40,CHN,China,Nantun Mine power station,WRI1075685,100,35.376100000000001,116.870000000000005,Coal, , , ,2003,Keao Aluminum,GCPT,https://endcoal.org/global-coal-plant-tracker/,GCPT, , , , , , , , , , , , , , ,487.259999999999991,NO-ESTIMATION,NO-ESTIMATION,NO-ESTIMATION,NO-ESTIMATION,CAPACITY-FACTOR-V1
41,CHN,China,Qilu Works power station,WRI1075701,490,36.785200000000003,118.213099999999997,Coal, , , ,1992,Sinopec Qilu Co,GCPT,https://endcoal.org/global-coal-plant-tracker/,GCPT, , , , , , , , , , , , , , ,2387.610000000000127,NO-ESTIMATION,NO-ESTIMATION,NO-ESTIMATION,NO-ESTIMATION,CAPACITY-FACTOR-V1
42,CHN,China,Qingdao power station,WRI1070310,1200,36.112299999999998,120.329099999999997,Coal, , , ,2001,Huadian Power International Company Limited,GCPT,https://endcoal.org/global-coal-plant-tracker/,GCPT,1028540, , , , , , , , , , , , , ,5847.220000000000255,NO-ESTIMATION,NO-ESTIMATION,NO-ESTIMATION,NO-ESTIMATION,CAPACITY-FACTOR-V1
43,CHN,China,Rizhao Iron and Steel Cogen power station,WRI1075705,660,35.156199999999998,119.366600000000005,Coal, , , ,2013,Rizhao Steel Holding Group,GCPT,https://endcoal.org/global-coal-plant-tracker/,GCPT, , , , , , , , , , , , , , ,3215.969999999999800,NO-ESTIMATION,NO-ESTIMATION,NO-ESTIMATION,NO-ESTIMATION,CAPACITY-FACTOR-V1
44,CHN,China,Rizhao power station,WRI1070312,2060,35.344999999999999,119.511099999999999,Coal, , , ,2006,Huaneng Shandong Power Co Ltd,GCPT,https://endcoal.org/global-coal-plant-tracker/,GCPT, , , , , , , , , , , , , , ,10037.739999999999782,NO-ESTIMATION,NO-ESTIMATION,NO-ESTIMATION,NO-ESTIMATION,CAPACITY-FACTOR-V1
45,CHN,China,Shandong Chenming Mill power station,WRI1075710,255,36.859200000000001,118.700100000000006,Coal, , , ,2009,Shandong Chenming Paper Holdings,GCPT,https://endcoal.org/global-coal-plant-tracker/,GCPT, , , , , , , , , , , , , , ,1242.529999999999973,NO-ESTIMATION,NO-ESTIMATION,NO-ESTIMATION,NO-ESTIMATION,CAPACITY-FACTOR-V1
46,CHN,China,Shandong Haihua Weifang power station,WRI1070060,150,37.130499999999998,119.032799999999995,Coal, , , ,2011,Shandong Haihua Weifang Power Station,GCPT,https://endcoal.org/global-coal-plant-tracker/,GCPT, , , , , , , , , , , , , , ,730.899999999999977,NO-ESTIMATION,NO-ESTIMATION,NO-ESTIMATION,NO-ESTIMATION,CAPACITY-FACTOR-V1
47,CHN,China,Shandong Hualu Hengsheng power station,WRI1075711,174,37.462299999999999,116.242999999999995,Coal, , , ,2002,Shandong Hualu Hengsheng Chemical Co,GCPT,https://endcoal.org/global-coal-plant-tracker/,GCPT, , , , , , , , , , , , , , ,847.840000000000032,NO-ESTIMATION,NO-ESTIMATION,NO-ESTIMATION,NO-ESTIMATION,CAPACITY-FACTOR-V1
48,CHN,China,Shandong Huatai power station,WRI1075712,270,37.009099999999997,118.490499999999997,Coal, , , ,2013,Shandong Huatai Paper Co Ltd,GCPT,https://endcoal.org/global-coal-plant-tracker/,GCPT, , , , , , , , , , , , , , ,1315.619999999999891,NO-ESTIMATION,NO-ESTIMATION,NO-ESTIMATION,NO-ESTIMATION,CAPACITY-FACTOR-V1
49,CHN,China,Shandong Jinling power station,WRI1075713,100,36.849899999999998,118.175100000000000,Coal, , , ,2006,Shandong Jinling Mining Co Ltd,GCPT,https://endcoal.org/global-coal-plant-tracker/,GCPT, , , , , , , , , , , , , , ,487.259999999999991,NO-ESTIMATION,NO-ESTIMATION,NO-ESTIMATION,NO-ESTIMATION,CAPACITY-FACTOR-V1
50,CHN,China,Shandong Xingda Cogen power station,WRI1075714,360,37.585799999999999,118.644099999999995,Coal, , , ,2016,Shandong Xingda New Energy Co Ltd,GCPT,https://endcoal.org/global-coal-plant-tracker/,GCPT, , , , , , , , , , , , , , ,1754.160000000000082,NO-ESTIMATION,NO-ESTIMATION,NO-ESTIMATION,NO-ESTIMATION,CAPACITY-FACTOR-V1
51,CHN,China,Shandong Zhongtai power station,WRI1075715,300,35.858100000000000,117.695800000000006,Coal, , , ,2007,Huaneng Shandong Power Co Ltd,GCPT,https://endcoal.org/global-coal-plant-tracker/,GCPT, , , , , , , , , , , , , , ,1461.799999999999955,NO-ESTIMATION,NO-ESTIMATION,NO-ESTIMATION,NO-ESTIMATION,CAPACITY-FACTOR-V1
52,CHN,China,Shengli Dongying power station,WRI1070314,1700,37.401299999999999,118.524299999999997,Coal, , , ,2004,Shengli Petrolium Administration,GCPT,https://endcoal.org/global-coal-plant-tracker/,GCPT,1028542, , , , , , , , , , , , , ,8283.569999999999709,NO-ESTIMATION,NO-ESTIMATION,NO-ESTIMATION,NO-ESTIMATION,CAPACITY-FACTOR-V1
53,CHN,China,Shiheng-2 power station,WRI1070315,1890,36.212200000000003,116.513599999999997,Coal, , , ,1998,Shandong Zhonghua Power Co Ltd,GCPT,https://endcoal.org/global-coal-plant-tracker/,GCPT,1028529, , , , , , , , , , , , , ,9209.379999999999200,NO-ESTIMATION,NO-ESTIMATION,NO-ESTIMATION,NO-ESTIMATION,CAPACITY-FACTOR-V1
54,CHN,China,Shouguang Jvneng Cogen Power Station,WRI1075727,310,36.872999999999998,118.770600000000002,Coal, , , ,2006,Shouguang Jvneng Cogen Development Co,GCPT,https://endcoal.org/global-coal-plant-tracker/,GCPT, , , , , , , , , , , , , , ,1510.529999999999973,NO-ESTIMATION,NO-ESTIMATION,NO-ESTIMATION,NO-ESTIMATION,CAPACITY-FACTOR-V1
55,CHN,China,Taiyang Mill power station,WRI1075733,340,35.534500000000001,116.798299999999998,Coal, , , ,2008,Shandong Sunshine Paper Co. Ltd.,GCPT,https://endcoal.org/global-coal-plant-tracker/,GCPT, , , , , , , , , , , , , , ,1656.710000000000036,NO-ESTIMATION,NO-ESTIMATION,NO-ESTIMATION,NO-ESTIMATION,CAPACITY-FACTOR-V1
56,CHN,China,Tengzhou Fuyuan Cogen power station,WRI1070563,48,34.924999999999997,117.115700000000004,Coal, , , ,2005,Tengzhou Fuyuan Co Ltd,GCPT,https://endcoal.org/global-coal-plant-tracker/,Industry About, , , , , , , , , , , , , , ,233.879999999999995,NO-ESTIMATION,NO-ESTIMATION,NO-ESTIMATION,NO-ESTIMATION,CAPACITY-FACTOR-V1
57,CHN,China,Tengzhou Xinyuan power station,WRI1070564,930,35.067599999999999,117.120400000000004,Coal, , , ,2005,Huadian Tengzhou Xinyuan Thermal Power Co Ltd,GCPT,https://endcoal.org/global-coal-plant-tracker/,GCPT,1055217, , , , , , , , , , , , , ,4531.600000000000364,NO-ESTIMATION,NO-ESTIMATION,NO-ESTIMATION,NO-ESTIMATION,CAPACITY-FACTOR-V1
58,CHN,China,Tianyuan Shandong power station,WRI1070570,600,37.053199999999997,117.875699999999995,Coal, , , ,2010,Shandong Tianyuan Thermoelectric,GCPT,https://endcoal.org/global-coal-plant-tracker/,GCPT,1088484, , , , , , , , , , , , , ,2923.610000000000127,NO-ESTIMATION,NO-ESTIMATION,NO-ESTIMATION,NO-ESTIMATION,CAPACITY-FACTOR-V1
59,CHN,China,Wanjie Gaoke Boshan Cogen power station,WRI1075747,70,36.474499999999999,117.843500000000006,Coal, , , ,2000,Shandong Wanjie Gaoke Co,GCPT,https://endcoal.org/global-coal-plant-tracker/,GCPT, , , , , , , , , , , , , , ,341.079999999999984,NO-ESTIMATION,NO-ESTIMATION,NO-ESTIMATION,NO-ESTIMATION,CAPACITY-FACTOR-V1
60,CHN,China,Weihai Cogen power station,WRI1075748,210,37.512500000000003,122.079200000000000,Coal, , , ,2005,Weihai Cogen Power Group,GCPT,https://endcoal.org/global-coal-plant-tracker/,GCPT, , , , , , , , , , , , , , ,1023.259999999999991,NO-ESTIMATION,NO-ESTIMATION,NO-ESTIMATION,NO-ESTIMATION,CAPACITY-FACTOR-V1
61,CHN,China,Weihai power station,WRI1070567,1960,37.449900000000000,122.207200000000000,Coal, , , ,2005,Huaneng Shandong Power Co Ltd,GCPT,https://endcoal.org/global-coal-plant-tracker/,GCPT,1028556, , , , , , , , , , , , , ,9550.469999999999345,NO-ESTIMATION,NO-ESTIMATION,NO-ESTIMATION,NO-ESTIMATION,CAPACITY-FACTOR-V1
62,CHN,China,Weihua Cogen power station,WRI1075749,100,37.705300000000001,118.156300000000002,Coal, , , ,2016,Weihua Cogen Power Co,GCPT,https://endcoal.org/global-coal-plant-tracker/,GCPT, , , , , , , , , , , , , , ,487.259999999999991,NO-ESTIMATION,NO-ESTIMATION,NO-ESTIMATION,NO-ESTIMATION,CAPACITY-FACTOR-V1
63,CHN,China,Weiqiao Huji power station,WRI1070045,2640,37.358800000000002,117.777199999999993,Coal, , , ,2015,Weiqiao Huimin New Material Co Ltd,GCPT,https://endcoal.org/global-coal-plant-tracker/,GCPT, , , , , , , , , , , , , , ,12863.899999999999636,NO-ESTIMATION,NO-ESTIMATION,NO-ESTIMATION,NO-ESTIMATION,CAPACITY-FACTOR-V1
64,CHN,China,Weiqiao Town Public Heating power station,WRI1070572,1320,37.025500000000001,117.483800000000002,Coal, , , ,2013,Weiqiao Huimin New Material Co Ltd,GCPT,https://endcoal.org/global-coal-plant-tracker/,GCPT, , , , , , , , , , , , , , ,6431.949999999999818,NO-ESTIMATION,NO-ESTIMATION,NO-ESTIMATION,NO-ESTIMATION,CAPACITY-FACTOR-V1
65,CHN,China,Weiqiao Yangxin power station,WRI1070571,1320,37.576500000000003,117.598600000000005,Coal, , , ,2015,Weiqiao Aluminum Co Ltd,GCPT,https://endcoal.org/global-coal-plant-tracker/,GCPT, , , , , , , , , , , , , , ,6431.949999999999818,NO-ESTIMATION,NO-ESTIMATION,NO-ESTIMATION,NO-ESTIMATION,CAPACITY-FACTOR-V1
66,CHN,China,Weiqiao Zhanhua power station,WRI1075752,700,38.022599999999997,117.971199999999996,Coal, , , ,2015,Weiqiao Huihong New Material Co.,GCPT,https://endcoal.org/global-coal-plant-tracker/,GCPT, , , , , , , , , , , , , , ,3410.880000000000109,NO-ESTIMATION,NO-ESTIMATION,NO-ESTIMATION,NO-ESTIMATION,CAPACITY-FACTOR-V1
67,CHN,China,Weiqiao Zouping-1 power station,WRI1075753,2640,36.910699999999999,117.785399999999996,Coal, , , ,2016,Shandong Hongqiao Limited,GCPT,https://endcoal.org/global-coal-plant-tracker/,GCPT, , , , , , , , , , , , , , ,12863.899999999999636,NO-ESTIMATION,NO-ESTIMATION,NO-ESTIMATION,NO-ESTIMATION,CAPACITY-FACTOR-V1
68,CHN,China,Weiqiao Zouping-3 power station,WRI1075754,1200,36.907699999999998,117.774100000000004,Coal, , , ,2008,Shandong Weiqiao Aluminum & Power Co Ltd,GCPT,https://endcoal.org/global-coal-plant-tracker/,GCPT, , , , , , , , , , , , , , ,5847.220000000000255,NO-ESTIMATION,NO-ESTIMATION,NO-ESTIMATION,NO-ESTIMATION,CAPACITY-FACTOR-V1
69,CHN,China,Weiqiao Zouping-6 power station,WRI1070291,2640,36.897900000000000,117.784400000000005,Coal, , , ,2014,Shandong Weiqiao Aluminum Power Co Ltd,GCPT,https://endcoal.org/global-coal-plant-tracker/,GCPT, , , , , , , , , , , , , , ,12863.899999999999636,NO-ESTIMATION,NO-ESTIMATION,NO-ESTIMATION,NO-ESTIMATION,CAPACITY-FACTOR-V1
70,CHN,China,Weiqiao Zouping-7 power station,WRI1070717,2640,36.897199999999998,117.861300000000000,Coal, , , ,2013,Weiqiao Textile Limited,GCPT,https://endcoal.org/global-coal-plant-tracker/,GCPT, , , , , , , , , , , , , , ,12863.899999999999636,NO-ESTIMATION,NO-ESTIMATION,NO-ESTIMATION,NO-ESTIMATION,CAPACITY-FACTOR-V1
71,CHN,China,Xinfa Xiwang power station,WRI1075758,465,36.615000000000002,116.219200000000001,Coal, , , ,2003,Shandong Xinfa Xiwang Aluminum Co,GCPT,https://endcoal.org/global-coal-plant-tracker/,GCPT, , , , , , , , , , , , , , ,2265.800000000000182,NO-ESTIMATION,NO-ESTIMATION,NO-ESTIMATION,NO-ESTIMATION,CAPACITY-FACTOR-V1
72,CHN,China,Xinyuan Aluminum power station,WRI1070716,3960,36.614800000000002,116.219399999999993,Coal, , , ,2015,Chiping Xinyuan Aluminum Co Ltd,GCPT,https://endcoal.org/global-coal-plant-tracker/,GCPT,1087421, , , , , , , , , , , , , ,19295.849999999998545,NO-ESTIMATION,NO-ESTIMATION,NO-ESTIMATION,NO-ESTIMATION,CAPACITY-FACTOR-V1
73,CHN,China,Yanzhou Mine Jisan power station,WRI1075773,270,35.268300000000004,116.659800000000004,Coal, , , ,2006,Jisan Power Co,GCPT,https://endcoal.org/global-coal-plant-tracker/,GCPT, , , , , , , , , , , , , , ,1315.619999999999891,NO-ESTIMATION,NO-ESTIMATION,NO-ESTIMATION,NO-ESTIMATION,CAPACITY-FACTOR-V1
74,CHN,China,Yunhe power station,WRI1070287,1240,35.486699999999999,116.476900000000001,Coal, , , ,2004,Huaneng Shandong Power Co Ltd,GCPT,https://endcoal.org/global-coal-plant-tracker/,GCPT,1055235, , , , , , , , , , , , , ,6042.130000000000109,NO-ESTIMATION,NO-ESTIMATION,NO-ESTIMATION,NO-ESTIMATION,CAPACITY-FACTOR-V1
75,CHN,China,Zaozhuang Bayi power station,WRI1075786,700,34.828400000000002,117.271100000000004,Coal, , , ,2018,Zaozhuang Bayi Cogen Power Co,GCPT,https://endcoal.org/global-coal-plant-tracker/,GCPT, , , , , , , , , , , , , , ,3410.880000000000109,NO-ESTIMATION,NO-ESTIMATION,NO-ESTIMATION,NO-ESTIMATION,CAPACITY-FACTOR-V1
76,CHN,China,Zaozhuang Nanjiao Cogen Power Station,WRI1075787,100,34.829599999999999,117.513000000000005,Coal, , , ,2006,Zaozhuang Nanjiao Cogen Power Co.,GCPT,https://endcoal.org/global-coal-plant-tracker/,GCPT, , , , , , , , , , , , , , ,487.259999999999991,NO-ESTIMATION,NO-ESTIMATION,NO-ESTIMATION,NO-ESTIMATION,CAPACITY-FACTOR-V1
77,CHN,China,Zhangdian power station,WRI1075788,190,36.793799999999997,118.093900000000005,Coal, , , ,1999,Shandong Tianyuan Thermoelectricity,GCPT,https://endcoal.org/global-coal-plant-tracker/,GCPT, , , , , , , , , , , , , , ,925.809999999999945,NO-ESTIMATION,NO-ESTIMATION,NO-ESTIMATION,NO-ESTIMATION,CAPACITY-FACTOR-V1
78,CHN,China,Zhangqiu power station,WRI1072553,890,36.728400000000001,117.403599999999997,Coal, , , ,2005,Huadian Power International Corporation Limited,GCPT,https://endcoal.org/global-coal-plant-tracker/,GCPT,1055216, , , , , , , , , , , , , ,4336.689999999999600,NO-ESTIMATION,NO-ESTIMATION,NO-ESTIMATION,NO-ESTIMATION,CAPACITY-FACTOR-V1
79,CHN,China,Zhanhua Waste Coal power station,WRI1075791,240,38.011400000000002,117.978300000000004,Coal, , , ,2016,Shandong Weiqiao Group,GCPT,https://endcoal.org/global-coal-plant-tracker/,GCPT, , , , , , , , , , , , , , ,1169.440000000000055,NO-ESTIMATION,NO-ESTIMATION,NO-ESTIMATION,NO-ESTIMATION,CAPACITY-FACTOR-V1
80,CHN,China,Zibo Hongda power station,WRI1075796,140,36.783299999999997,118.049999999999997,Coal, , , ,2004,Zibo Hongda Thermal Power,GCPT,https://endcoal.org/global-coal-plant-tracker/,GCPT, , , , , , , , , , , , , , ,682.169999999999959,NO-ESTIMATION,NO-ESTIMATION,NO-ESTIMATION,NO-ESTIMATION,CAPACITY-FACTOR-V1
81,CHN,China,Zouxian power station,WRI1072548,4540,35.325600000000001,116.926100000000005,Coal, , , ,1998,China Huadian Corporation,GCPT,https://endcoal.org/global-coal-plant-tracker/,GCPT,1028551, , , , , , , , , , , , , ,22122.009999999998399,NO-ESTIMATION,NO-ESTIMATION,NO-ESTIMATION,NO-ESTIMATION,CAPACITY-FACTOR-V1